[



    
    {
        "id": "2",
        "name": "Sucursal Rancagua",
        "lat": "-34.16268",
        "lng": "-70.745744",
        "address": "Pedro Aguirre Cerda 802",
        "address2": "Esquina Av. España",
        "city": "Rancagua",
        "state": "",
        "postal": "",
        "phone": "+5672 2227000",
        "email": "machali@fhc.cl",
        "web": "http:\/\/",
        "hours1": "",
        "hours2": "",
        "hours3": ""
    },
    {
        "id": "3",
        "name": "Sucursal Concepción",
        "lat": "-36.8207841",
        "lng": "-73.0397621",
        "address": "Freire 1553",
        "address2": "Concepción",
        "city": "Concepción",
        "state": "",
        "postal": "",
        "phone": "+5641 2250487 - +5641 2250488",
        "email":"concepcion@fhc.cl",
        "web": "http:\/\/",
        "hours1": "",
        "hours2": "",
        "hours3": ""
    },
    {
        "id": "4",
        "name": "Sucursal Temuco",
        "lat": "-38.73676",
        "lng": "-72.601444",
        "address": "Av. Alemania 011",
        "address2": "",
        "city": "Temuco",
        "state": "",
        "postal": "",
        "phone": "+5645 2271010",
        "web": "http:\/\/",
        "hours1": "",
        "hours2": "",
        "hours3": ""
    },
    {
        "id": "5",
        "name": "Sucursal Cordillera",
        "lat": "-33.556113",
        "lng": "-70.547646",
        "address": "Camino Sta Rosa del Peral 6500",
        "address2": "Puente Alto",
        "city": "Región metropolitana",
        "state": "",
        "postal": "",
        "phone": "600 626 6500",
        "web": "http:\/\/",
        "hours1": "",
        "hours2": "",
        "hours3": ""
    },
        {
        "id": "6",
        "name": "Sucursal Puente Alto",
        "lat": "-33.5540681",
        "lng": "-70.5863285",
        "address": "Av. Vicuña Mackenna 10536,",
        "address2": "Puente Alto",
        "city": "Región metropolitana",
        "state": "",
        "postal": "",
        "phone": "600 626 6500",
        "web": "http:\/\/",
        "hours1": "",
        "hours2": "",
        "hours3": ""
    },

    {
        "id": "7",
        "name": "Sucursal Viña Del Mar",
        "lat": "-33.015964",
        "lng": "-71.552371",
        "address": "7 Norte 531",
        "address2": "Llegando a 2 Poniente",
        "city": "Viña del Mar",
        "state": "",
        "postal": "",
        "phone": "+5632 2973138",
        "web": "http:\/\/",
        "hours1": "",
        "hours2": "",
        "hours3": ""
    },
    {
        "id": "8",
        "name": "Sucursal San Miguel",
        "lat": "-33.48226",
        "lng": "-70.648658",
        "address": "Gambetta Sur 1088,",
        "address2": "Paradero 4 Gran Avenida",
        "city": "Región metropolitana",
        "state": "",
        "postal": "",
        "phone": "600 626 6500",
        "web": "http:\/\/",
        "hours1": "",
        "hours2": "",
        "hours3": ""
    },
    {
        "id": "9",
        "name": "Sucursal Estación Central",
        "lat": "-33.454691",
        "lng": "-70.696868",
        "address": "Av. Bernardo O´Higgins 4463",
        "address2": "Región metropolitana",
        "city": "Región metropolitana",
        "state": "",
        "postal": "",
        "phone": "600 626 6500",
        "web": "http:\/\/",
        "hours1": "",
        "hours2": "",
        "hours3": ""
    }
    ,
    {
        "id": "10",
        "name": "Sucursal La Florida",
        "lat": "-33.514499",
        "lng": "-70.607933",
        "address": "Av. Vicuña Mackenna Poniente 6415",
        "address2": "La Florida",
        "city": "Región metropolitana",
        "state": "",
        "postal": "",
        "phone": "600 626 6500",
        "web": "http:\/\/",
        "hours1": "",
        "hours2": "",
        "hours3": ""
    }
    ,
    {
        "id": "11",
        "name": "Sucursal Peñalolén",
        "lat": "-33.464092",
        "lng": "-70.57406",
        "address": "Av. Américo Vespucio 1220 ",
        "address2": "Peñalolén",
        "city": "Región metropolitana",
        "state": "",
        "postal": "",
        "phone": "600 626 6500",
        "web": "http:\/\/",
        "hours1": "",
        "hours2": "",
        "hours3": ""
    }
    ,
    {
        "id": "12",
        "name": "Sucursal Las Condes",
        "lat": "-33.390705",
        "lng": "-70.541674",
        "address": "Av. Las Condes 9280",
        "address2": "Las Condes",
        "city": "Región metropolitana",
        "state": "",
        "postal": "",
        "phone": "600 626 6500",
        "web": "http:\/\/",
        "hours1": "",
        "hours2": "",
        "hours3": ""
    }
    ,
    {
        "id": "13",
        "name": "Sucursal Vitacura",
        "lat": "-33.404692",
        "lng": "-70.597219",
        "address": "Av. Vitacura 3446",
        "address2": "Vitacura",
        "city": "Región metropolitana",
        "state": "",
        "postal": "",
        "phone": "600 626 6500",
        "web": "http:\/\/",
        "hours1": "",
        "hours2": "",
        "hours3": ""
    }
    ,
    {
        "id": "14",
        "name": "Sucursal Tobalaba",
        "lat": "-33.419568",
        "lng": "-70.599745",
        "address": "Av. Tobalaba 239",
        "address2": "Providencia",
        "city": "Región metropolitana",
        "state": "",
        "postal": "",
        "phone": "600 626 6500",
        "web": "http:\/\/",
        "hours1": "",
        "hours2": "",
        "hours3": ""
    }

    ,


    {
        "id": "15",
        "name": "Sucursal Ñuñoa",
        "lat": "-33.455188",
        "lng": "-70.597233",
        "address": "Av. Irarrázabal 3235",
        "address2": " Ñuñoa",
        "city": "Región metropolitana",
        "state": "",
        "postal": "",
        "phone": "600 626 6500",
        "web": "http:\/\/",
        "hours1": "",
        "hours2": "",
        "hours3": ""
    }
    ,

    {
        "id": "16",
        "name": "Sucursal San Ignacio",
        "lat": "-33.447191",
        "lng": "-70.657136",
        "address": "San Ignacio 101, Región metropolitana",
        "address2": "",
        "city": "Región metropolitana",
        "state": "",
        "postal": "",
        "phone": "600 626 6500",
        "web": "http:\/\/",
        "hours1": "",
        "hours2": "",
        "hours3": ""
    }
    ,
    {
        "id": "17",
        "name": "Casa Matriz",
        "lat": "-33.417636",
        "lng": "-70.6568",
        "address": "Bezanilla 1240,",
        "address2": "Independencia",
        "city": "Región metropolitana",
        "state": "",
        "postal": "",
        "phone": "600 626 6500",
        "web": "http:\/\/",
        "hours1": "",
        "hours2": "",
        "hours3": ""
    }

]